City_ID,City,Country,Max Temp,Current Description,Lat,Lng,Hotel Name
1,Lobito,AO,77.07,broken clouds,-12.3481,13.5456,Casa Rosa Hotel Residence
2,Bredasdorp,ZA,67.32,overcast clouds,-34.5322,20.0403,Bredasdorp Country Manor
3,Muros,ES,55.83,clear sky,42.7762,-9.0603,Apartment Av. Castelao
12,Hermanus,ZA,73.9,scattered clouds,-34.4187,19.2345,Misty Waves Boutique Hotel
16,Bluff,NZ,51.8,clear sky,-46.6,168.3333,Bluff Homestead - Guesthouse & Campervan Park
18,Puerto Ayora,EC,80.56,overcast clouds,-0.7393,-90.3518,Finch Bay Galapagos Hotel
20,Avarua,CK,82.45,few clouds,-21.2078,-159.775,Paradise Inn
21,Mahanoro,MG,76.51,light rain,-19.9,48.8,BUNGALOW MAHAMANINA
26,Cabo San Lucas,MX,85.3,broken clouds,22.8909,-109.9124,Hotel Tesoro Los Cabos
28,Cidreira,BR,70.32,overcast clouds,-30.1811,-50.2056,Hotel Castelo
29,Saint-Joseph,RE,79.18,few clouds,-21.3667,55.6167,"""Plantation Bed and Breakfast"
30,Castro,BR,81.64,clear sky,-24.7911,-50.0119,CHACARA BAILLY
33,Port Alfred,ZA,72.9,overcast clouds,-33.5906,26.891,The Halyards Hotel
34,Deniliquin,AU,75.0,scattered clouds,-35.5333,144.9667,Riviana Motel
35,Samfya,ZM,65.08,overcast clouds,-11.3649,29.5565,Chita Lodge Samfya
36,Hwange,ZW,70.63,clear sky,-18.3693,26.5019,Hwange Colliery Guest House
38,Faanui,PF,80.82,light rain,-16.4833,-151.75,Bora-Bora Pearl Beach Resort & Spa
39,Rikitea,PF,78.26,light rain,-23.1203,-134.9692,People ThankYou
40,Ondjiva,AO,68.72,light rain,-17.0667,15.7333,COMBUESA
41,Busselton,AU,63.05,clear sky,-33.65,115.3333,Observatory Guest House
43,Yulara,AU,66.04,clear sky,-25.2406,130.9889,Desert Gardens Hotel - Ayers Rock Resort
45,Mahebourg,MU,81.25,scattered clouds,-20.4081,57.7,Shandrani Beachcomber Resort & Spa
52,Saint-Philippe,RE,80.19,scattered clouds,-21.3585,55.7679,"Chambres d'hôte ""La Trinité"""
54,Lata,PT,53.82,broken clouds,40.1629,-8.3327,Casa Maquia
57,Mahemdavad,IN,62.85,clear sky,22.8333,72.7667,Shalvi Infracon pvt ltd Grass court Greens
58,Talcahuano,CL,64.08,scattered clouds,-36.7167,-73.1167,departamento comodo
59,Mataura,NZ,51.48,scattered clouds,-46.1927,168.8643,Ellie's Villa
60,Cape Town,ZA,69.12,few clouds,-33.9258,18.4232,Southern Sun Waterfront Cape Town
62,Esperance,AU,61.59,clear sky,-33.8667,121.9,Hospitality Esperance
63,Chino Valley,US,71.01,clear sky,34.7575,-112.4538,Primrose Inn & Suites
66,Lebu,CL,65.7,broken clouds,-37.6167,-73.65,Hostal Las Lilas
67,Port-Gentil,GA,76.96,broken clouds,-0.7193,8.7815,Fengshui Residence
68,Nador,MA,53.85,clear sky,35.174,-2.9287,Hôtel La Giralda
70,Laguna,US,80.44,clear sky,38.421,-121.4238,"Holiday Inn Express & Suites Elk Grove Central - Hwy 99, an IHG Hotel"
72,Chake Chake,TZ,77.67,broken clouds,-5.2459,39.7666,Hotel Archipelago
73,Vila Franca Do Campo,PT,61.2,clear sky,37.7167,-25.4333,Pestana Bahia Praia
74,Carballo,ES,51.76,scattered clouds,43.213,-8.691,Pazo do Souto
76,Kapaa,US,77.11,scattered clouds,22.0752,-159.319,Sheraton Kauai Coconut Beach Resort
77,Jiwani,PK,71.46,overcast clouds,25.05,61.7417,Al Mumtaz Transport Jiwani
79,Alofi,NU,82.29,scattered clouds,-19.0595,-169.9187,Taloa Heights
80,East London,ZA,73.54,broken clouds,-33.0153,27.9116,Tu Casa
82,Biak,ID,75.24,overcast clouds,-0.9131,122.8766,Penginapan Kim
83,Saint George,US,70.54,clear sky,37.1041,-113.5841,Best Western Plus Abbey Inn
84,Kavaratti,IN,80.55,broken clouds,10.5669,72.642,Hotels in Lakshadweep Islands
85,Vaini,TO,80.62,light rain,-21.2,-175.2,Keleti Beach Resort
87,Mayumba,GA,78.31,light rain,-3.432,10.6554,LIKWALE LODGE
88,Port Blair,IN,73.44,mist,11.6667,92.75,"Welcomhotel By ITC Hotels, Bay Island, Port Blair"
89,Hilo,US,77.25,broken clouds,19.7297,-155.09,Hilo Hawaiian Hotel
90,Kalangala,UG,72.75,overcast clouds,-0.3089,32.225,Ssese Habitat Resort
91,Haimen,CN,55.29,light rain,23.1935,116.6142,Jinghao Business Hotel
92,Christchurch,NZ,57.9,broken clouds,-43.5333,172.6333,The George
94,Kirakira,SB,79.48,moderate rain,-10.4544,161.9205,SanBiz Lodge
95,Hobart,AU,60.66,broken clouds,-42.8794,147.3294,Mantra on Collins Hobart
96,Ancud,CL,79.23,few clouds,-41.8697,-73.8203,Hotel Arena Gruesa
98,Guanica,PR,84.51,clear sky,17.9716,-66.908,Copamarina Beach Resort & Spa
100,Waddan,LY,55.78,clear sky,29.1614,16.139,محل الشريف محمد العايب
101,Emerald,AU,69.94,clear sky,-23.5333,148.1667,The Irish Village
102,Sompeta,IN,65.39,scattered clouds,18.9333,84.6,బెంకిలి భైరొడమ్మ క్రికెట్ గ్రౌండ్
103,Nortelandia,BR,80.17,heavy intensity rain,-14.4547,-56.8028,Hotel Karysmã
104,Spearfish,US,56.01,broken clouds,44.4908,-103.8594,Travelodge by Wyndham Spearfish
105,Atuona,PF,77.54,light rain,-9.8,-139.0333,Villa Enata
106,Kruisfontein,ZA,65.23,few clouds,-34.0033,24.7314,Oyster Bay House Rental
107,Kagoro,NG,75.06,few clouds,9.6,8.3833,Palm Garden Hotel
108,Punta Arenas,CL,50.11,scattered clouds,-53.15,-70.9167,Hotel Hain
110,Alyangula,AU,73.27,scattered clouds,-13.8483,136.4192,Groote Eylandt Lodge
111,Pangkalanbuun,ID,74.68,overcast clouds,-2.6833,111.6167,Grand Kecubung Hotel
112,Port Elizabeth,ZA,70.09,clear sky,-33.918,25.5701,39 On Nile Guest House
113,Bol,TD,76.98,clear sky,13.4586,14.7147,Hotel 3 Etoiles
114,Namibe,AO,75.52,overcast clouds,-15.1961,12.1522,Hotel Chik Chik Namibe
115,Sambava,MG,76.73,moderate rain,-14.2667,50.1667,Melrose
116,Aswan,EG,67.3,clear sky,24.0934,32.907,Nuba Nile
118,Hithadhoo,MV,82.15,broken clouds,-0.6,73.0833,Scoop Guest House
120,Kaitangata,NZ,50.0,few clouds,-46.2817,169.8464,Kaitangata Motor Camp
125,Tocopilla,CL,73.36,overcast clouds,-22.092,-70.1979,Hotel Galvarino
127,Porto Novo,BJ,84.02,clear sky,6.4965,2.6036,Tour Eiffel Hotel Benin
128,Tan An,VN,78.82,few clouds,10.5333,106.4167,Khách Sạn Quỳnh Anh
129,Meadow Lake,US,57.97,clear sky,34.8014,-106.5436,TumbleWeed RV Park
131,Whithorn,JM,81.66,scattered clouds,18.2604,-78.0378,Sunset Heal
134,Bodden Town,KY,84.99,broken clouds,19.2833,-81.25,Will T Place
135,Samarai,PG,80.15,scattered clouds,-10.6167,150.6667,Nuli Sapi
136,Kudahuvadhoo,MV,81.55,overcast clouds,2.6708,72.8944,Niyama Private Islands Maldives
140,Totness,SR,80.28,broken clouds,5.8833,-56.3167,STAATS LOGEERGEBOUW TOTNESS
141,Cayenne,GF,82.44,broken clouds,4.9333,-52.3333,Hôtel Le Dronmi
142,San Cristobal,VE,80.78,overcast clouds,7.7669,-72.225,Posada Villaven C.A.
144,Baghdad,IQ,51.71,clear sky,33.3406,44.4009,Baghdad Hotel
148,Sola,VU,82.11,overcast clouds,-13.8833,167.55,Leumerus Bungalows
151,Dwarka,IN,70.09,clear sky,22.2394,68.9678,Hotel Narayan Avezika Comfort
152,Porto Santo,PT,60.71,few clouds,33.072,-16.3415,Hotel Porto Santo & Spa
153,Macas,EC,80.35,broken clouds,-2.3167,-78.1167,Casa Upano
154,Mar Del Plata,AR,71.62,clear sky,-38.0023,-57.5575,Gran Hotel Mar del Plata
155,Ribeira Grande,PT,57.6,scattered clouds,38.5167,-28.7,Quinta da Meia Eira
156,Sinazongwe,ZM,76.71,scattered clouds,-17.2614,27.4618,Lakeview Lodge
158,Betera,ES,57.81,clear sky,39.5833,-0.45,Hotel Mas Camarena
159,Clovis,US,83.46,scattered clouds,36.8252,-119.7029,"Homewood Suites by Hilton Fresno Airport/Clovis, CA"
161,Victoria,HK,61.25,overcast clouds,22.2855,114.1577,Mini Hotel Central
163,Aquiraz,BR,84.29,few clouds,-3.9014,-38.3911,Pousada Rua Camurupim
167,Samarinda,ID,72.27,overcast clouds,-0.5,117.15,ASTON Samarinda Hotel & Convention Center
168,Saurimo,AO,65.25,overcast clouds,-9.6608,20.3916,Hotel Kawissa Saurimo
169,Nyimba,ZM,67.91,light rain,-14.5566,30.8149,Dali Dali Lodge
170,Amarante Do Maranhao,BR,75.56,moderate rain,-5.5667,-46.7422,Hotéis Caçulinha
175,Katobu,ID,73.78,broken clouds,-4.9408,122.5276,La Ode Husein
176,Bria,CF,79.47,few clouds,6.5423,21.9863,WFP Guesthouse
178,Tabou,CI,78.48,scattered clouds,4.423,-7.3528,hotêl doufoulougou
179,Isangel,VU,80.71,volcanic ash,-19.55,169.2667,Tanna Lodge
180,Georgetown,MY,79.9,scattered clouds,5.4112,100.3354,Cititel Penang
182,Talara,PE,86.76,clear sky,-4.5772,-81.2719,Hostal Oro Negro
183,Codrington,AU,59.86,broken clouds,-38.2667,141.9667,Codrington Gardens Bed And Breakfast
184,Constitucion,CL,67.98,broken clouds,-35.3333,-72.4167,Hotel Boutique Las Azucenas
185,Lompoc,US,85.1,clear sky,34.6391,-120.4579,"Holiday Inn Express Lompoc, an IHG Hotel"
186,Praia Da Vitoria,PT,57.76,broken clouds,38.7333,-27.0667,Hotel Branco I
188,Lagoa,PT,56.43,overcast clouds,39.05,-27.9833,Casa Das Faias
189,Conceicao Do Araguaia,BR,81.16,overcast clouds,-8.2578,-49.2647,Tarumã Tropical Hotel
190,Santa Cruz De La Palma,ES,65.14,few clouds,28.6835,-17.7642,H10 Taburiente Playa
191,Portland,US,62.28,few clouds,45.5234,-122.6762,Embassy Suites by Hilton Portland Downtown
194,San Patricio,US,65.16,clear sky,28.017,-97.5169,"Motel 6 Sinton, TX"
195,New Norfolk,AU,60.3,overcast clouds,-42.7826,147.0587,The Shingles Riverside Cottages
198,Zwedru,LR,75.58,overcast clouds,6.0667,-8.1281,Elijah Worjloh
200,Sidhi,IN,54.54,clear sky,24.4167,81.8833,Kamdhenu Sweets
201,Arraial Do Cabo,BR,80.56,scattered clouds,-22.9661,-42.0278,Pousada Porto Praia
203,Hambantota,LK,75.99,overcast clouds,6.1241,81.1185,Bungalow 63
205,Carnarvon,AU,75.27,clear sky,-24.8667,113.6333,Hospitality Carnarvon
206,Tartus,SY,52.41,clear sky,34.889,35.8866,خيمة نبراس للاجئين
207,Kavieng,PG,80.74,overcast clouds,-2.5744,150.7967,Nusa Island Retreat
209,Geraldton,AU,73.81,overcast clouds,-28.7667,114.6,Broadwater Mariner Resort
210,Auki,SB,77.22,overcast clouds,-8.7676,160.7034,Auki Motel
214,Praya,CV,73.94,clear sky,14.9215,-23.5087,LT Aparthotel
218,Labrea,BR,76.03,moderate rain,-7.2586,-64.7981,Hotel Novo Horizonte
220,Ukiah,US,76.37,clear sky,39.1502,-123.2078,Hampton Inn Ukiah
221,Marsh Harbour,BS,75.51,heavy intensity rain,26.5412,-77.0636,Abaco Beach Resort
222,The Valley,AI,78.94,scattered clouds,18.217,-63.0578,CeBlue Villas & Beach Resort
223,Trincomalee,LK,79.72,overcast clouds,8.5711,81.2335,Welcombe Hotel
225,San Mateo Ixtatan,GT,62.15,overcast clouds,15.8319,-91.4781,HOTEL MAGDALENA
230,Bengkulu,ID,76.21,overcast clouds,-3.8004,102.2655,Grage Hotel Bengkulu
233,Sibu,MY,75.51,scattered clouds,2.3,111.8167,RH HOTEL (4 Star)
236,Eirunepe,BR,74.86,overcast clouds,-6.6603,-69.8736,Atrás de você
238,Pacific Grove,US,80.8,clear sky,36.6177,-121.9166,Lovers Point Inn
239,Butaritari,KI,81.77,broken clouds,3.0707,172.7902,Isles Sunset Lodge
242,Najran,SA,56.05,few clouds,17.4924,44.1277,محمد هادي ال فطيح
245,Galveston,US,61.21,clear sky,29.3669,-94.9669,Crystal Suites
246,Shirgaon,IN,70.83,clear sky,19.7,72.7,"Samarth Krupa Farm, Palghar"
247,Ambilobe,MG,73.31,light rain,-13.2,49.05,Hôtel & Restaurant DIANA Ambilobe
248,Touros,BR,85.1,clear sky,-5.1989,-35.4608,INN NEW HORIZON
250,Prado,BR,79.05,broken clouds,-17.3411,-39.2208,INN CORNER RIVER - PRADO - BAHIA - HOUSING AND HOTEL
251,Waipawa,NZ,54.45,overcast clouds,-41.4122,175.5153,Tora Coastal Walk
252,Tarecuato,MX,70.05,broken clouds,19.85,-102.4833,La virgen de la cantera
253,Rawson,AR,89.74,clear sky,-43.3002,-65.1023,Hosteria Sampedro
254,Bushehr,IR,62.69,clear sky,28.9684,50.8385,Yas Hostel
256,Chachapoyas,PE,63.0,moderate rain,-6.2317,-77.869,Teresita
257,Miguel Alves,BR,88.52,scattered clouds,-4.1656,-42.8953,PAIN POUSADA E RESTAURANTE
259,Coihaique,CL,81.21,clear sky,-45.5752,-72.0662,Diego De Almagro Coyhaique
263,Sao Filipe,CV,75.6,broken clouds,14.8961,-24.4956,Hotel Xaguate
264,Gurupi,BR,77.61,overcast clouds,-11.7292,-49.0686,Via Norte Hotel
265,Goba,ET,52.27,broken clouds,7.0167,39.9833,Tsehay Bezabeh Metasebya Mengita Bet
266,Charters Towers,AU,68.85,clear sky,-20.1,146.2667,Cattleman's Rest Motor Inn
267,Namatanai,PG,78.69,overcast clouds,-3.6667,152.4333,Seagulls Inn Namatani
270,Lubango,AO,59.29,broken clouds,-14.9172,13.4925,Hotel Serra da Chela
271,Florianopolis,BR,80.69,scattered clouds,-27.6146,-48.5012,Hotel Boutique Quinta das Videiras
273,Marawi,PH,63.64,overcast clouds,7.9986,124.2928,Derogongan Residence
276,Asfi,MA,59.14,clear sky,32.2994,-9.2372,Hôtel Abda
277,Guerrero Negro,MX,80.01,few clouds,27.9769,-114.0611,"Casa Laguna, Bed & Breakfast"
278,Nova Olimpia,BR,75.9,light rain,-14.7972,-57.2881,Motel glamour
279,Oxford,GB,50.76,overcast clouds,51.7522,-1.256,Malmaison Oxford
280,Kaoma,ZM,65.14,few clouds,-14.7833,24.8,KAOMA AIRPORT
281,Daru,PG,78.89,broken clouds,-9.0763,143.2092,Daru Lodge
282,Faya,SA,55.92,broken clouds,18.3851,42.4509,املاك خالد الشعشوع
283,Maues,BR,81.01,broken clouds,-3.3836,-57.7186,Hotel Miramar
284,Nizwa,OM,64.13,clear sky,22.9333,57.5333,Orient Apartments
285,Rio Gallegos,AR,59.05,few clouds,-51.6226,-69.2181,Hotel Santa Cruz
288,Lamu,KE,79.02,broken clouds,-2.2717,40.902,Lamu House
290,Phalaborwa,ZA,76.28,clear sky,-23.943,31.1411,Bothabelo Bed and Breakfast
291,Dingle,PH,74.28,overcast clouds,10.9995,122.6711,SEGAYA PROPERTY
293,Los Llanos De Aridane,ES,61.12,few clouds,28.6585,-17.9182,Valle Aridane
295,Uvira,CD,73.74,overcast clouds,-3.4067,29.1458,Hotel Suzana
298,Patti,IN,55.35,broken clouds,31.2808,74.8572,harike air travel
299,Awbari,LY,56.43,clear sky,26.5921,12.7805,فندق أوباري
300,Doctor Arroyo,MX,54.37,overcast clouds,23.6667,-100.1833,Hotel Plaza
301,Bubaque,GW,78.37,clear sky,11.2833,-15.8333,"Casa Dora, Bubaque"
303,Parauna,BR,77.43,broken clouds,-16.9478,-50.4486,Hotel Serras de Paraúna
304,General Bravo,MX,59.36,broken clouds,25.8,-99.1667,Hotel Don Joaquin
309,Muisne,EC,82.51,light rain,0.6,-80.0333,Quinta Samay
310,Bushenyi,UG,67.23,overcast clouds,-0.5853,30.2114,College View Guest House
312,Quelimane,MZ,76.95,broken clouds,-17.8786,36.8883,Hotel Flamingo
315,Finschhafen,PG,78.57,overcast clouds,-6.6024,147.8681,Cossam Guest House
316,Chuy,UY,72.5,clear sky,-33.6971,-53.4616,Nuevo Hotel Plaza
317,Saint-Georges,GD,79.54,scattered clouds,12.0564,-61.7485,Radisson Grenada Beach Resort
319,San Policarpo,PH,78.64,overcast clouds,12.1791,125.5072,Agapita M. Nicart
320,Sao Luiz Gonzaga,BR,90.27,clear sky,-28.4083,-54.9608,"Hotel Ipê ""Sob nova Direção"""
321,North Myrtle Beach,US,58.01,few clouds,33.816,-78.68,Avista Resort
324,Ballina,AU,64.78,broken clouds,-28.8667,153.5667,Ramada Hotel & Suites by Wyndham Ballina Byron
325,Port Lincoln,AU,65.95,overcast clouds,-34.7333,135.8667,Port Lincoln Hotel
326,Otane,NZ,58.01,overcast clouds,-39.8833,176.6333,Ludlow Farmstay
329,Barcelos,PT,50.92,light rain,41.5388,-8.6151,Hotel Restaurante Bagoeira
330,Souillac,MU,81.36,light rain,-20.5167,57.5167,Shanti Maurice Resort & Spa
331,Pasni,PK,70.75,broken clouds,25.2631,63.471,Kashmiri Hotal
332,Itoman,JP,64.42,light rain,26.1247,127.6694,Southern Beach Hotel & Resort Okinawa
333,Paka,MY,76.93,scattered clouds,4.6374,103.4368,RUMBIA RESORT VILLA Paka Terengganu
334,Sulangan,PH,79.11,overcast clouds,11.1373,123.7228,Maia's Beach Resort
337,Vilhena,BR,73.62,moderate rain,-12.7406,-60.1458,Hotel Mirage
338,Mount Isa,AU,73.17,scattered clouds,-20.7333,139.5,ibis Styles Mt Isa Verona
340,Dieppe,FR,52.32,overcast clouds,49.75,1.1667,LA LONGERE DES NUITS DE VARENNE
342,Baculin,PH,76.01,overcast clouds,7.4525,126.5842,Baculin Cove Beach Resort
343,Kieta,PG,78.82,overcast clouds,-6.2167,155.6333,Uruna Bay Retreat
344,Schroeder,BR,89.92,few clouds,-26.4125,-49.0731,Schroeder Imóveis e Waldenir Hang Corretor de Imóveis
345,Comodoro Rivadavia,AR,78.66,scattered clouds,-45.8667,-67.5,Austral Hotel
346,Noumea,NC,80.58,overcast clouds,-22.2763,166.4572,Hôtel Le Lagon
347,Ugep,NG,84.11,few clouds,5.8086,8.0812,Classic Bar
348,Bambous Virieux,MU,81.21,scattered clouds,-20.3428,57.7575,Casa Tia Villa
350,Modasa,IN,65.19,clear sky,23.4667,73.3,HOTEL SUN SHINE
351,Moussoro,TD,77.14,clear sky,13.6408,16.4901,Hôtel Salama
354,Buala,SB,79.0,light rain,-8.145,159.5921,Maringe Lagoon Lodge
355,Abnub,EG,59.22,clear sky,27.2696,31.1511,مضيفت اولاد احمد ابو حسين
357,Bermejo,AR,85.91,few clouds,-32.8833,-68.8,Muras Apart Hotel
359,Salinas,US,81.19,clear sky,36.6777,-121.6555,Laurel Inn & Conference Center
360,Wamba,NG,79.74,clear sky,8.9333,8.6,Roma Zee Guest House Annex
361,Sasvad,IN,66.42,clear sky,18.3333,74.0333,Adsul Farm
362,Hokitika,NZ,55.36,few clouds,-42.7167,170.9667,Beachfront Hotel Hokitika
363,Tura,IN,54.39,clear sky,25.5198,90.2201,Hotel RIKMAN Continental
366,Mount Gambier,AU,60.71,overcast clouds,-37.8333,140.7667,The Commodore
370,Axim,GH,79.39,clear sky,4.8699,-2.2405,Axim Beach Resort And Spa
371,Jalu,LY,56.95,broken clouds,29.0331,21.5482,صاحبة الفخامة
372,Necochea,AR,69.94,clear sky,-38.5473,-58.7368,dyd -mar Hotel
373,Caravelas,BR,79.74,overcast clouds,-17.7125,-39.2481,Pousada dos Navegantes
374,Hualmay,PE,76.51,few clouds,-11.0964,-77.6139,Hotel Villa Kitzia Huacho
375,Pipar,IN,62.08,clear sky,26.3856,73.5378,Aadam Mansion
376,Atar,MR,71.78,overcast clouds,20.5169,-13.0499,Oumou Elghoura
379,Pisco,PE,78.85,clear sky,-13.7,-76.2167,Hotel San Isidro Oficial
380,Ramnagar,IN,52.45,clear sky,29.4,79.1167,Leisure Vacation Myrica Hotel
383,Dubbo,AU,60.93,overcast clouds,-32.25,148.6167,Quality Inn Dubbo International
386,Kahului,US,77.97,scattered clouds,20.8947,-156.47,Maui Seaside Hotel
388,Barberton,ZA,64.94,clear sky,-25.7884,31.0532,Barberton B&B
391,Ponta Do Sol,PT,63.72,overcast clouds,32.6667,-17.1,Hotel do Campo
392,Nicoya,CR,85.55,few clouds,10.1483,-85.452,Las Cabinas Del Sueño
393,Ahipara,NZ,64.69,broken clouds,-35.1667,173.1667,Ahipara Holiday Park
394,Flinders,AU,63.05,overcast clouds,-34.5833,150.8552,Shellharbour Resort & Conference Centre
396,Pailon,BO,86.9,broken clouds,-17.65,-62.75,Alojamiento pailon
399,Canatlan,MX,59.65,overcast clouds,24.5167,-104.7833,AUTOLAVADO El Negro
400,Vallenar,CL,84.87,clear sky,-28.5708,-70.7581,Humacao Bed & Breakfast
401,Bougouni,ML,79.83,clear sky,11.417,-7.479,Non Stop
402,Lorengau,PG,80.33,overcast clouds,-2.0226,147.2712,Lorengau Harbourside Hotel
403,Leeton,AU,69.71,broken clouds,-34.5667,146.4,Historic Hydro Motor Inn
404,Eyl,SO,75.07,overcast clouds,7.9803,49.8164,Amiin Hotel
405,Salalah,OM,77.09,clear sky,17.0151,54.0924,"HAMDAN PLAZA HOTEL SALALAH, an HTG Hotel"
406,Kindu,CD,70.63,overcast clouds,-2.95,25.95,Résidence Okanda
407,Fort Myers Beach,US,76.05,clear sky,26.452,-81.9481,Lani Kai Island Resort
409,Mahenge,TZ,64.62,moderate rain,-8.6833,36.7167,Mkondosii Guest House
410,Fomboni,KM,82.06,clear sky,-12.28,43.7425,Auberge les abou
411,Bathsheba,BB,84.81,broken clouds,13.2167,-59.5167,Atlantis Hotel
414,Turayf,SA,50.25,clear sky,31.6725,38.6637,Turaif
416,Santa Catalina,PH,76.62,overcast clouds,9.3337,122.8637,BreakWater Beach Sta Catalina Negros Oriental
417,Aloleng,PH,77.72,overcast clouds,16.1307,119.7824,Steve Walden and Emma Sison-Walden Residence
418,Padang,ID,76.5,overcast clouds,-0.9492,100.3543,Mercure Padang
419,Bajil,YE,76.5,scattered clouds,15.0584,43.2851,فندق حضرموت
420,Prattville,US,51.31,clear sky,32.464,-86.4597,InTown Suites Extended Stay Prattville AL
422,La Romana,DO,86.36,few clouds,18.4273,-68.9728,Casa de Campo Resort and Villas
423,San Quintin,MX,76.03,clear sky,30.4833,-115.95,Don Eddie's Landing
424,San Jeronimo,PE,55.96,overcast clouds,-11.9472,-75.2829,Tuki Llajta Pueblo Bonito Eco Lodge
425,Makurdi,NG,86.31,overcast clouds,7.7411,8.5121,Doo Palace Hotel
426,Batticaloa,LK,77.49,overcast clouds,7.7102,81.6924,Grand Star Guest House
427,Tumut,AU,63.59,broken clouds,-35.3,148.2167,Amaroo Motel
430,Hobyo,SO,77.16,broken clouds,5.3505,48.5268,Halane Hotel and Restaurent
431,Hermosillo,MX,89.69,few clouds,29.0667,-110.9667,ibis Hermosillo
432,Frontera,MX,62.33,overcast clouds,26.9333,-101.45,Casagrande Hotel
434,Gallup,US,57.96,clear sky,35.5281,-108.7426,El Capitan Motel
437,Vila Velha,BR,82.35,broken clouds,-20.3297,-40.2925,Quality Suites Vila Velha
439,Mansa,IN,51.17,clear sky,29.9833,75.3833,STARiHOTEL Mansa
440,Murupara,NZ,61.56,clear sky,-38.4667,176.7,Murupara Motor Camp
441,Japura,ID,73.38,overcast clouds,-0.3167,102.35,Rumah mbah Jamah
442,Manono,CD,69.71,overcast clouds,-7.3,27.4167,Hotel hewa bora
443,Natal,BR,84.85,few clouds,-5.795,-35.2094,Villa Park Hotel | Natal
444,Tela,HN,84.34,broken clouds,15.7833,-87.45,Hotel & Restaurante Cesar Mariscos
446,Porto Nacional,BR,86.0,scattered clouds,-10.7081,-48.4172,Vila Real Hotel
447,Tautira,PF,86.02,light rain,-17.7333,-149.15,Pension Oaoa
448,Mbandaka,CD,73.35,overcast clouds,0.0487,18.2603,Guest House Epervier
450,Metro,ID,75.16,overcast clouds,-5.1131,105.3067,OYO 3177 Wisma Lintang
451,Champerico,GT,95.54,clear sky,14.3,-91.9167,"Hotel y restaurante ""El Diamante"""
453,Wanning,CN,69.31,overcast clouds,18.8003,110.3967,Paradise Hotel
457,Rocha,UY,68.22,clear sky,-34.4833,-54.3333,Hotel Arrarte
460,Luwuk,ID,76.62,overcast clouds,-0.9516,122.7875,Hotel Santika Luwuk
464,Florida,US,73.08,clear sky,28.7505,-82.5001,Sportsmens Cove
467,Amuntai,ID,73.45,overcast clouds,-2.4177,115.2494,Hotel Balqis
469,Golden,US,55.78,few clouds,39.7555,-105.2211,"The Golden Hotel, Ascend Hotel Collection"
475,Hindaun,IN,57.83,clear sky,26.7167,77.0167,Shri Ganesham Resort and Water Park
476,Tual,ID,80.96,overcast clouds,-5.6667,132.75,Grand Vilia Hotel
477,Sahuaripa,MX,79.16,scattered clouds,29.05,-109.2333,Estatua de Sahuaripa
479,Aracati,BR,83.41,broken clouds,-4.5617,-37.7697,Motel Pousada Milleniun - Aracati-CE
480,Karratha,AU,84.02,broken clouds,-20.7377,116.8463,ibis Styles Karratha
481,Topolobampo,MX,84.11,broken clouds,25.6,-109.05,Hotel Marina Topolobampo
482,Naldurg,IN,72.28,clear sky,17.8167,76.3,रामदेव होटल
483,Kulhudhuffushi,MV,79.81,overcast clouds,6.6221,73.07,Haajy Guest House 1
485,Tukrah,LY,53.91,clear sky,32.5341,20.5791,Lagrota restaurant
486,Ridgecrest,US,72.39,clear sky,35.6225,-117.6709,SpringHill Suites by Marriott Ridgecrest
487,Meulaboh,ID,76.33,overcast clouds,4.1363,96.1285,Kost Pria
488,Menongue,AO,63.99,light rain,-14.6585,17.691,Ritz Lauca
490,San Francisco,US,76.53,clear sky,37.7749,-122.4194,The Clift Royal Sonesta Hotel
491,Vao,NC,79.57,overcast clouds,-22.6667,167.4833,Hotel Kou-Bugny
497,Cangucu,BR,76.21,clear sky,-31.395,-52.6756,Compacto 2D Centro Canela
502,Nanyuki,KE,57.42,overcast clouds,0.0167,37.0728,Lions Court Lodge
503,Benguela,AO,77.04,broken clouds,-12.5763,13.4055,Hotel Praia Morena
504,Vanimo,PG,77.4,overcast clouds,-2.6741,141.3028,Vahmoneh Lodge Vanimo
508,Sabha,LY,57.06,clear sky,27.0377,14.4283,Foundation Taaj Asala for Historical Research and Archeology
510,Fort Collins,US,56.62,clear sky,40.5853,-105.0844,Best Western University Inn
512,Sur,OM,71.98,clear sky,22.5667,59.5289,Sur Plaza Hotel
513,Garissa,KE,84.81,scattered clouds,-0.4536,39.6401,Sharif Plaza Hotel
515,Canico,PT,63.72,scattered clouds,32.6333,-16.85,Quinta Splendida Wellness & Botanical Garden
517,Tomatlan,MX,94.39,overcast clouds,19.9333,-105.25,El Salvial
518,Corrales,US,59.54,clear sky,35.2378,-106.6067,Quality Inn
519,Brownsville,US,62.89,clear sky,25.9018,-97.4975,University Inn & Suites
520,Ocala,US,73.02,few clouds,29.1872,-82.1401,Golden Palms Inn & Suites
521,Peniche,PT,56.68,clear sky,39.3558,-9.3811,Hotel Star inn Peniche
522,Grand Gaube,MU,81.37,overcast clouds,-20.0064,57.6608,Veranda Paul et Virginie Hotel & Spa
525,Pochutla,MX,91.22,overcast clouds,15.7432,-96.4661,Hotel Posada San Jose
526,Kananga,CD,68.85,overcast clouds,-5.8958,22.4178,Guest House Wood Land
528,Kununurra,AU,80.58,broken clouds,-15.7667,128.7333,Hotel Kununurra
530,Sao Joao Da Barra,BR,80.69,few clouds,-21.6403,-41.0511,Pousada Porto De Canoas
531,Creel,MX,56.59,overcast clouds,27.75,-107.6333,The Lodge at Creel Hotel & SPA
534,Kundiawa,PG,63.14,overcast clouds,-6.0167,144.9667,Pari
536,Espanola,US,55.27,clear sky,35.9911,-106.0806,Santa Claran Hotel Casino
540,Zemio,CF,79.5,overcast clouds,5.0314,25.1361,OCHA Office
543,George Town,MY,79.9,scattered clouds,5.4112,100.3354,Cititel Penang
545,Harper,LR,78.49,broken clouds,4.375,-7.7169,Screensaver
546,Saint-Pierre,RE,80.28,clear sky,-21.3393,55.4781,Lindsey Hôtel
549,Honiara,SB,78.57,overcast clouds,-9.4333,159.95,Heritage Park Hotel
550,San Luis,AR,81.54,clear sky,-33.295,-66.3356,Huarpes Hotel
551,Coahuayana,MX,96.28,overcast clouds,18.7333,-103.6833,El rranchito michuacan de ocampos
553,Port Hedland,AU,84.25,clear sky,-20.3167,118.5667,"The Esplanade Hotel (Accommodation section closed for refurbishment - Bar, Restaurant & Functions remain open)"
554,Crixas,BR,76.95,broken clouds,-14.5489,-49.9692,RISO HOTEL
556,Mumford,GH,79.25,light rain,5.2618,-0.759,Spanish Villa
557,San Andres,CO,86.02,scattered clouds,12.5847,-81.7006,Hotel Arena Blanca
558,Iberia,US,55.4,clear sky,29.9502,-91.7507,back to back rv park
559,Tulsipur,NP,51.3,clear sky,28.131,82.2973,Ekanta Hotel Pvt. Ltd
560,Saint-Paul,RE,80.71,clear sky,-21.0096,55.2707,Boucan Canot
561,Nishihara,JP,63.68,broken clouds,26.1842,127.7558,Minshuku Agaihama
563,Gushikawa,JP,63.63,light rain,26.3544,127.8686,Kirari Guest House
564,Basco,PH,77.02,overcast clouds,20.4487,121.9702,Nathaniel's Lodge
565,Nhulunbuy,AU,77.61,clear sky,-12.2333,136.7667,East Arnhem Real Estate
566,Ahuimanu,US,78.51,few clouds,21.4447,-157.8378,Paradise Bay Resort
567,Goroka,PG,61.56,overcast clouds,-6.0834,145.3873,Bird of Paradise Hotel & Apartments
569,Alta Floresta,BR,84.02,broken clouds,-9.8756,-56.0861,Floresta Amazonica Hotel
571,Pueblo,US,61.56,few clouds,38.2545,-104.6091,Courtyard by Marriott Pueblo Downtown
572,Qui Nhon,VN,73.99,overcast clouds,13.7667,109.2333,Hoang Yen Canary Hotel
573,Port Keats,AU,74.59,overcast clouds,-14.25,129.55,TDC Village (Hundred Man Camp)
575,Worland,US,51.15,clear sky,44.0169,-107.9554,Town House Motor Inn
580,Quatre Cocos,MU,81.09,broken clouds,-20.2078,57.7625,Sunrise Attitude Hotel
582,Azul,AR,79.34,clear sky,-36.777,-59.8585,Cabañas Dulcinea
583,Riberalta,BO,86.2,broken clouds,-10.9833,-66.1,Hotel Colonial
584,Ternate,ID,79.57,overcast clouds,0.8,127.4,Sahid Bela Ternate Hotel
586,Olinda,BR,83.93,broken clouds,-8.0089,-34.8553,Pousada Sitio Do Carmo
588,Hervey Bay,AU,68.11,few clouds,-25.2986,152.8535,Shelly Bay Resort
591,Talipparamba,IN,72.05,clear sky,12.05,75.35,RAMIS RESIDENCY
595,Camapua,BR,90.46,overcast clouds,-19.5314,-54.0439,Comercial Estrela
596,Takoradi,GH,79.52,light rain,4.8845,-1.7554,Raybow International Hotel
598,Grand Baie,MU,81.45,overcast clouds,-20.0182,57.5802,Trou aux Biches Beachcomber Golf Resort & Spa
599,Sessa Aurunca,IT,50.58,overcast clouds,41.2408,13.9328,Hotel San Leo
600,Burnie,AU,58.95,broken clouds,-41.0667,145.9167,Beachfront Voyager Motor Inn
601,Chilpancingo,MX,80.82,broken clouds,17.55,-99.5,Relámpago Cartuchos Deportivos de Guerrero S.A. de C.V.
603,Miri,MY,77.14,scattered clouds,4.4148,114.0089,"Mega Hotel, Miri"
605,San Juan,AR,86.5,clear sky,-31.5375,-68.5364,Hotel Provincial
606,Jieshi,CN,56.95,light rain,22.8134,115.8257,Yuehai Hotel
608,Portugalete,ES,59.14,clear sky,43.321,-3.0206,Hotel Naval Sestao
609,Angoche,MZ,79.11,few clouds,-16.2325,39.9086,Guest House HESADA
611,Manaure,CO,93.31,few clouds,11.7751,-72.4445,Hotel Palaaima
613,Bhuban,IN,61.09,clear sky,20.8833,85.8333,Prasanta Sahoo
614,Tema,GH,83.1,overcast clouds,5.667,-0.0166,Beulah Royale Hotel Tema
615,Tezu,IN,53.58,clear sky,27.9167,96.1667,Circuit House
616,Taltal,CL,71.46,few clouds,-25.4,-70.4833,Residencial Karime
618,Labuhan,ID,75.9,overcast clouds,-6.8844,112.2051,DoubleFAG
621,Boa Vista,BR,91.38,scattered clouds,2.8197,-60.6733,Aipana Plaza Hotel
622,Cabedelo,BR,84.87,clear sky,-6.9811,-34.8339,Hotel Pigalle
623,Pundaguitan,PH,79.88,broken clouds,6.3711,126.1689,Leonardo Family Beach House 1
624,Bedford,GB,50.05,overcast clouds,52.1346,-0.4663,Bedford Swan Hotel
625,Cessnock,AU,66.09,scattered clouds,-32.8333,151.35,Hunter Valley Motel
626,Billings,US,56.52,broken clouds,45.7833,-108.5007,Best Western Plus Clocktower Inn
628,Bossangoa,CF,80.33,overcast clouds,6.4926,17.4552,LA PERLE DE BOSTON
629,Innisfail,AU,75.49,broken clouds,-17.5333,146.0333,Moondarra Motel
637,Concordia,AR,77.07,clear sky,-31.393,-58.0209,Palmar Hotel Casino
638,Bonthe,SL,78.82,scattered clouds,7.5264,-12.505,Bonthe Holiday Village
639,Ariquemes,BR,74.68,overcast clouds,-9.9133,-63.0408,Hotel Sol Nascente - Ariquemes - RO
640,Mpika,ZM,61.81,overcast clouds,-11.8343,31.4529,Melodies Lodge
641,Villa Del Rosario,CO,86.38,scattered clouds,7.8339,-72.4742,Hotel Villas de San Diego
643,Llanes,ES,55.27,light rain,43.4198,-4.7549,Hotel La Paz
644,Quibdo,CO,80.94,broken clouds,5.6947,-76.6611,Hotel Angeles
645,Huarmey,PE,77.31,clear sky,-10.0681,-78.1522,Hotel Miramar
646,Diego De Almagro,CL,82.15,clear sky,-26.3667,-70.05,hotel luna del desierto
647,Kapit,MY,73.8,overcast clouds,2.0167,112.9333,Hotel Meligai Kapit
649,Gidole,ET,67.17,overcast clouds,5.65,37.3667,Shallom mekaneyesus church
650,Camacha,PT,57.96,few clouds,33.0833,-16.3333,Hotel Porto Santo & Spa
651,Alice Springs,AU,58.55,clear sky,-23.7,133.8833,Desert Palms Alice Springs
652,Puerto Escondido,MX,83.23,broken clouds,15.85,-97.0667,Aldea del Bazar Hotel and Spa
653,Coromandel,BR,72.39,overcast clouds,-18.4733,-47.2003,Hotel Dona Adélia
658,Paita,PE,86.56,clear sky,-5.0892,-81.1144,Hotel Náutico de Paita
662,Pulaski,US,58.66,clear sky,34.7668,-92.3001,DoubleTree by Hilton Hotel Little Rock
663,Becerril,CO,101.32,broken clouds,9.7041,-73.2793,Barrio El Carmen
664,Trelew,AR,98.04,clear sky,-43.249,-65.3051,Hotel Touring Club
667,Dhidhdhoo,MV,78.55,overcast clouds,6.8833,73.1,Dhidhoo beach
668,Ongole,IN,73.53,scattered clouds,15.5,80.05,Hotel Kolas
669,Kuching,MY,75.42,scattered clouds,1.55,110.3333,The Ranee Boutique Suites
671,Alamogordo,US,64.56,clear sky,32.8995,-105.9603,Fairfield Inn & Suites by Marriott Alamogordo
673,Rio Pomba,BR,84.74,scattered clouds,-21.2747,-43.1792,San Marino Hotel
674,Kiraoli,IN,54.28,clear sky,27.15,77.7833,Taj Hotel
675,Cap Malheureux,MU,81.46,overcast clouds,-19.9842,57.6142,Pereybere Hotel & Spa
677,Pozo Colorado,PY,96.1,broken clouds,-23.4923,-58.7972,Hospedaje la Amistad
682,Matay,EG,57.94,clear sky,28.419,30.7792,Nag Aespen
684,Washougal,US,64.15,clear sky,45.5826,-122.3534,Camas Boutique Hotel
685,Cruzeiro Do Sul,BR,76.48,overcast clouds,-29.5128,-51.9853,Estrela Palace Hotel
686,Richards Bay,ZA,75.78,scattered clouds,-28.783,32.0377,BON Hotel Waterfront Richards Bay
690,Astoria,US,58.08,clear sky,46.1879,-123.8313,Best Western Astoria Bayfront Hotel
692,Vangaindrano,MG,74.05,clear sky,-23.35,47.6,Hotel Fanilo
694,Kaman,IN,53.65,clear sky,27.65,77.2667,Dr.kishan kaman
695,Eravur,LK,76.53,overcast clouds,7.7733,81.6095,Farhan KING House
